City_ID,City,Lat,Lng,Max Temp,Humidity,Cloudiness,Wind Speed,Country,Date
0,waitangi,-43.9535,-176.5597,11.01,87,22,8.05,NZ,1728513667
1,adamstown,-25.066,-130.1015,20.47,76,71,8.12,PN,1728513669
2,aykhal,66.0,111.5,-12.18,100,98,1.72,RU,1728513670
3,lhasa,29.65,91.1,7.28,72,10,2.13,CN,1728513671
4,ilulissat,69.2167,-51.1,1.01,93,100,0.0,GL,1728513498
5,cabo san lucas,22.8909,-109.9124,32.17,51,75,4.63,MX,1728513673
6,blackmans bay,-43.0167,147.3167,17.07,54,29,4.02,AU,1728513675
7,hovd,48.0056,91.6419,6.86,37,16,2.54,MN,1728513676
8,isafjordur,66.0755,-23.124,-0.5,90,87,3.81,IS,1728513677
9,kyneton,-37.25,144.4333,11.76,64,57,4.69,AU,1728513678
10,west island,-12.1568,96.8225,25.99,83,75,6.69,CC,1728513680
11,lorengau,-2.0226,147.2712,28.94,74,97,3.5,PG,1728513681
12,vorgashor,67.5833,63.95,-7.53,96,25,2.62,RU,1728513682
13,hawaiian paradise park,19.5933,-154.9731,28.83,70,0,5.14,US,1728513683
14,bredasdorp,-34.5322,20.0403,15.85,90,97,2.0,ZA,1728513684
15,jamestown,42.097,-79.2353,11.8,62,100,5.66,US,1728513417
16,grytviken,-54.2811,-36.5092,-2.63,95,100,1.1,GS,1728513686
17,port-aux-francais,-49.35,70.2167,0.7,56,100,10.44,TF,1728513687
18,udachny,66.4167,112.4,-15.24,100,69,1.55,RU,1728513688
19,ribeira grande,38.5167,-28.7,22.1,92,52,0.45,PT,1728513689
20,albany,42.6001,-73.9662,11.23,68,74,0.89,US,1728513691
21,xinyuan,37.3,99.0,-2.08,86,91,0.19,CN,1728513553
22,laayoune,27.1622,-13.2032,21.19,100,55,5.14,EH,1728513693
23,puerto ayora,-0.7393,-90.3518,21.42,93,83,5.36,EC,1728513694
24,margaret river,-33.95,115.0667,8.99,76,25,4.67,AU,1728513695
25,iqaluit,63.7506,-68.5145,1.85,87,100,4.12,CA,1728513696
26,invercargill,-46.4,168.35,9.45,76,98,3.13,NZ,1728513697
27,yemetsk,63.4721,41.7941,-1.26,71,11,3.43,RU,1728513698
28,el calafate,-50.3408,-72.2768,7.86,73,46,8.94,AR,1728513699
29,ushuaia,-54.8,-68.3,10.81,66,75,4.63,AR,1728513673
30,kodiak,57.79,-152.4072,7.73,42,100,4.63,US,1728513702
31,quellon,-43.1167,-73.6167,10.4,88,87,0.33,CL,1728513703
32,christchurch,-43.5333,172.6333,12.4,55,100,4.12,NZ,1728513704
33,longyearbyen,78.2186,15.6401,-0.09,64,75,11.83,SJ,1728513705
34,jashpurnagar,22.9,84.15,20.22,87,53,1.1,IN,1728513706
35,anadyr,64.75,177.4833,-2.72,86,40,3.0,RU,1728513707
36,alvear,-29.0968,-56.5504,17.09,88,100,9.23,AR,1728513709
37,kudahuvadhoo,2.6708,72.8944,27.78,79,100,9.44,MV,1728513712
38,susehri,40.1644,38.0867,16.74,37,29,0.79,TR,1728513713
39,calvinia,-31.4707,19.776,15.65,63,77,2.29,ZA,1728513714
40,prince rupert,54.3161,-130.3201,10.05,82,100,8.23,CA,1728513715
41,tranas,58.0372,14.9782,10.62,96,100,2.09,SE,1728513716
42,tiksi,71.6872,128.8694,-4.83,78,100,7.06,RU,1728513717
43,vilyuchinsk,52.9306,158.4028,6.15,53,1,7.86,RU,1728513719
44,qaqortoq,60.7167,-46.0333,2.1,82,76,0.55,GL,1728513720
45,potenza,40.6443,15.8086,16.62,68,85,1.79,IT,1728513721
46,puerto natales,-51.7236,-72.4875,9.25,71,75,15.43,CL,1728513723
47,san julian,21.0167,-102.1667,21.66,51,83,1.71,MX,1728513724
48,okhotsk,59.3833,143.3,0.44,50,53,1.26,RU,1728513725
49,meadow lakes,61.6247,-149.6011,8.01,76,20,1.54,US,1728513726
50,fuqing,25.725,119.3794,20.62,86,98,2.29,CN,1728513727
51,pisco,-13.7,-76.2167,19.03,77,0,8.75,PE,1728513728
52,lumding railway colony,25.749,93.17,21.66,99,44,0.57,IN,1728513729
53,badger,64.8,-147.5333,0.2,89,100,3.09,US,1728513730
54,lihue,21.9789,-159.3672,29.77,62,20,8.75,US,1728513470
55,princeton,25.5384,-80.4089,30.0,80,75,8.75,US,1728513476
56,soran,49.78,72.8506,11.63,40,43,2.9,KZ,1728513734
57,tura,25.5198,90.2201,21.81,95,18,1.3,IN,1728513615
58,lebu,-37.6167,-73.65,11.04,88,1,6.18,CL,1728513737
59,sitka,57.0531,-135.33,9.94,76,100,3.09,US,1728513738
60,howard springs,-12.497,131.047,28.26,83,30,1.7,AU,1728513739
61,kingston,17.997,-76.7936,30.53,79,20,6.17,JM,1728513629
62,remire-montjoly,4.9167,-52.2667,28.02,78,0,2.57,GF,1728513597
63,edinburgh of the seven seas,-37.0676,-12.3116,12.99,75,43,8.0,SH,1728513742
64,yellowknife,62.456,-114.3525,4.29,89,75,6.71,CA,1728513744
65,hamilton,39.1834,-84.5333,23.47,42,0,2.57,US,1728513253
66,ponnani,10.767,75.9252,24.94,89,100,1.96,IN,1728513746
67,guelma,36.4621,7.4261,26.13,41,88,3.6,DZ,1728513747
68,st. john's,47.5649,-52.7093,12.21,92,100,7.72,CA,1728513748
69,sao joao da barra,-21.6403,-41.0511,25.05,87,92,6.63,BR,1728513749
70,uturoa,-16.7333,-151.4333,25.84,80,100,8.52,PF,1728513750
71,shizunai-furukawacho,42.3339,142.3669,12.95,73,10,5.43,JP,1728513751
72,thakhek,17.4103,104.8307,21.06,86,87,1.27,LA,1728513752
73,mount gambier,-37.8333,140.7667,13.4,56,20,4.36,AU,1728513753
74,igrim,63.1906,64.4162,-3.03,74,9,1.83,RU,1728513756
75,wailua homesteads,22.0669,-159.378,29.44,71,20,8.75,US,1728513757
76,portland,45.5234,-122.6762,20.87,52,75,3.09,US,1728513598
77,wittingen,52.7269,10.7361,16.66,100,100,4.11,DE,1728513759
78,peace river,56.2501,-117.286,13.17,47,0,2.57,CA,1728513646
79,enewetak,11.3474,162.3373,28.88,73,89,3.16,MH,1728513761
80,punta arenas,-53.15,-70.9167,12.06,54,20,13.89,CL,1728513762
81,severo-yeniseyskiy,60.3725,93.0408,-4.7,93,97,3.75,RU,1728513764
82,whitehorse,60.7161,-135.0538,5.01,86,100,4.63,CA,1728513765
83,okha,53.5739,142.9478,5.15,72,12,5.26,RU,1728513766
84,dudinka,69.4058,86.1778,-7.93,89,94,9.31,RU,1728513767
85,at taj,24.2049,23.2857,25.98,26,0,4.54,LY,1728513768
86,meulaboh,4.1363,96.1285,24.14,94,100,1.66,ID,1728513769
87,uba,-21.12,-42.9428,20.97,92,93,5.72,BR,1728513771
88,guerrero negro,27.9769,-114.0611,24.28,62,10,6.53,MX,1728513772
89,inirida,3.8653,-67.9239,27.94,73,78,0.49,CO,1728513773
90,vanimo,-2.6741,141.3028,28.43,70,90,2.9,PG,1728513775
91,hithadhoo,-0.6,73.0833,27.35,79,100,8.63,MV,1728513776
92,port mathurin,-19.6833,63.4167,23.0,88,85,10.09,MU,1728513777
93,dickson,36.077,-87.3878,23.11,33,0,3.6,US,1728513778
94,shingu,33.7333,135.9833,19.5,78,100,2.16,JP,1728513779
95,dingwall,57.5953,-4.4272,3.99,86,52,1.87,GB,1728513780
96,tucumcari,35.1717,-103.725,30.91,14,0,2.06,US,1728513781
97,howrah,22.5892,88.3103,25.0,94,40,0.0,IN,1728513782
98,ghat,24.9647,10.1728,30.49,19,7,1.35,LY,1728513783
99,kirkuk,35.4681,44.3922,25.07,17,0,1.25,IQ,1728513785
100,bata,1.8639,9.7658,25.48,86,100,1.39,GQ,1728513786
101,chonchi,-42.6128,-73.8092,12.84,89,67,1.11,CL,1728513787
102,bikenibeu village,1.3673,173.1241,30.98,66,20,4.63,KI,1728513788
103,les anglais,18.3054,-74.2197,27.01,83,70,3.18,HT,1728513789
104,mansa,29.9833,75.3833,23.36,45,27,1.81,IN,1728513790
105,aasiaat,68.7098,-52.8699,0.79,95,100,2.88,GL,1728513791
106,bethel,41.3712,-73.414,15.31,54,54,2.17,US,1728513707
107,nizao,18.25,-70.2,27.88,78,50,2.3,DO,1728513793
108,codrington,-38.2667,141.9667,13.66,60,40,7.46,AU,1728513794
109,praia da vitoria,38.7333,-27.0667,24.14,88,40,3.15,PT,1728513795
110,ancud,-41.8697,-73.8203,10.39,89,8,3.82,CL,1728513797
111,walvis bay,-22.9575,14.5053,13.97,72,2,4.44,NA,1728513798
112,comandante fontana,-25.3345,-59.6821,19.82,93,74,2.47,AR,1728513799
113,kimbe,-5.5502,150.1429,29.97,66,36,0.45,PG,1728513801
114,bokovskaya,49.229,41.8306,9.17,83,2,2.04,RU,1728513802
115,puerto baquerizo moreno,-0.9,-89.6,23.55,94,20,8.75,EC,1728513675
116,papatowai,-46.5619,169.4708,10.28,61,88,4.73,NZ,1728513804
117,petropavlovsk-kamchatsky,53.0452,158.6483,5.33,52,0,5.0,RU,1728513805
118,san patricio,28.017,-97.5169,31.97,24,0,2.66,US,1728513806
119,xique xique,-10.8217,-42.7311,29.34,42,53,2.22,BR,1728513807
120,talnakh,69.4865,88.3972,-8.12,82,76,5.0,RU,1728513809
121,newport,51.5877,-2.9984,13.03,86,99,7.26,GB,1728513810
122,necochea,-38.5473,-58.7368,12.83,71,81,7.06,AR,1728513764
123,bilibino,68.0546,166.4372,-6.22,87,99,2.12,RU,1728513812
124,registro,-24.4875,-47.8436,20.0,92,100,2.13,BR,1728513813
125,kodinsk,58.6881,99.1844,-0.26,89,100,4.66,RU,1728513814
126,ebon,4.582,168.6964,28.73,71,18,4.71,MH,1728513815
127,anchorage,61.2181,-149.9003,7.19,69,100,3.6,US,1728513774
128,suva,-18.1416,178.4415,27.71,74,75,4.63,FJ,1728513817
129,baiti,13.745,-14.7482,22.73,96,100,1.33,SN,1728513818
130,nabire,-3.3667,135.4833,27.07,81,87,0.86,ID,1728513819
131,sarmiento,-45.5882,-69.07,18.9,25,95,10.16,AR,1728513821
132,belmonte,-15.8631,-38.8828,24.93,82,44,4.87,BR,1728513822
133,dhromolaxia,34.8755,33.5868,22.07,77,0,1.54,CY,1728513823
134,caucete,-31.6518,-68.2811,12.57,83,100,1.95,AR,1728513824
135,ixtapa,20.7,-105.2,29.57,74,75,4.12,MX,1728513825
136,harstad,68.799,16.5293,7.31,84,100,7.15,NO,1728513826
137,redencao,-4.2258,-38.7306,22.86,87,26,1.74,BR,1728513827
138,atafu village,-8.5421,-172.5159,28.3,72,45,5.32,TK,1728513828
139,susuman,62.7833,148.1667,-14.11,95,99,1.01,RU,1728513829
140,opuwo,-18.0607,13.84,22.06,28,3,2.56,NA,1728513831
141,kone,-21.0595,164.8658,29.16,39,25,1.42,NC,1728513833
142,pacific grove,36.6177,-121.9166,19.82,92,40,3.6,US,1728513834
143,gargalianoi,37.0667,21.6333,18.33,83,60,1.09,GR,1728513835
144,cockburn town,21.4612,-71.1419,29.71,74,96,3.54,TC,1728513836
145,reggane,26.7158,0.1714,33.76,22,24,1.72,DZ,1728513837
146,carutapera,-1.195,-46.02,25.82,84,83,3.67,BR,1728513838
147,luderitz,-26.6481,15.1594,12.85,79,0,1.08,NA,1728513839
148,arar,30.9753,41.0381,24.01,15,0,0.0,SA,1728513840
149,castillos,-34.1667,-53.8333,13.26,80,100,4.48,UY,1728513841
150,shibganj,24.6829,88.1598,26.05,84,50,2.36,BD,1728513842
151,thompson,55.7435,-97.8558,13.09,58,40,2.06,CA,1728513843
152,bentong town,3.5167,101.9,24.29,97,100,0.28,MY,1728513845
153,gizo,-8.103,156.8419,28.51,72,84,2.17,SB,1728513846
154,afaahiti,-17.75,-149.2833,23.31,87,100,8.59,PF,1728513847
155,aflou,34.1128,2.1023,19.89,35,7,2.03,DZ,1728513848
156,monte alegre,-2.0078,-54.0692,29.83,44,94,2.37,BR,1728513849
157,awash,8.9833,40.1667,23.6,57,39,2.37,ET,1728513850
158,tralee,52.2704,-9.7026,8.69,79,88,4.62,IE,1728513672
159,crane,31.3974,-102.3501,31.88,16,1,6.31,US,1728513852
160,thinadhoo,0.5333,72.9333,28.36,75,99,10.14,MV,1728513853
161,dara,15.3484,-15.4799,27.07,75,99,1.49,SN,1728513854
162,vysokiy,58.35,60.05,-1.44,94,100,4.54,RU,1728513855
163,vincennes,48.85,2.4333,13.26,98,100,6.69,FR,1728513857
164,la'ie,21.6477,-157.9253,29.66,71,13,1.79,US,1728513858
165,devin,41.7433,24.4,11.45,93,11,1.21,BG,1728513859
166,avarua,-21.2078,-159.775,26.03,61,40,8.23,CK,1728513860
167,thurles,52.6819,-7.8022,8.55,91,81,4.49,IE,1728513861
168,nogales,31.3086,-110.9422,32.76,11,0,5.66,MX,1728513862
169,touros,-5.1989,-35.4608,25.17,76,15,5.4,BR,1728513863
170,turiacu,-1.6633,-45.3717,25.03,86,78,2.77,BR,1728513864
171,ketchikan,55.3422,-131.6461,10.99,87,100,4.12,US,1728513865
172,antofagasta,-23.65,-70.4,16.6,77,11,0.23,CL,1728513814
173,ataq,14.5377,46.8319,21.63,77,1,2.34,YE,1728513867
174,olonkinbyen,70.9221,-8.7187,0.08,71,28,7.61,SJ,1728513869
175,horta,38.5333,-28.6333,21.68,92,57,0.45,PT,1728513870
176,skeldon,5.8833,-57.1333,27.42,75,26,3.9,GY,1728513871
177,maralal,1.0968,36.698,16.49,61,95,3.48,KE,1728513872
178,hengchun,22.0042,120.7439,25.61,79,15,5.58,TW,1728513873
179,nurota,40.5614,65.6886,19.44,23,84,5.87,UZ,1728513874
180,port lincoln,-34.7333,135.8667,14.01,58,0,7.67,AU,1728513875
181,bubaque,11.2833,-15.8333,26.71,83,99,4.05,GW,1728513876
182,college,64.8569,-147.8028,0.25,84,100,3.09,US,1728513877
183,marsa alam,25.0757,34.8918,27.79,44,0,3.12,EG,1728513878
184,sao jose da coroa grande,-8.8978,-35.1478,24.62,82,69,5.65,BR,1728513880
185,xilin hot,43.9667,116.0333,2.11,45,0,6.26,CN,1728513881
186,morant bay,17.8815,-76.4093,27.99,82,65,1.88,JM,1728513882
187,tocoa,15.6833,-86.0,28.79,82,92,1.66,HN,1728513883
188,tokar,18.4254,37.729,27.77,76,1,1.29,SD,1728513884
189,ambon,-3.6954,128.1814,28.26,95,40,1.54,ID,1728513885
190,kerikeri,-35.2268,173.9474,15.87,44,100,1.57,NZ,1728513886
191,taulaga,-11.0553,-171.0883,27.43,78,44,4.45,AS,1728513887
192,kibondo,-3.5864,30.7203,16.04,91,65,1.5,TZ,1728513888
193,vengerovo,55.6848,76.7471,0.7,70,100,3.76,RU,1728513889
194,sidi ifni,29.3797,-10.173,19.4,85,28,3.29,MA,1728513891
195,zilair,52.2332,57.4392,10.89,74,100,1.96,RU,1728513892
196,helong,42.5397,128.9972,9.24,86,100,1.88,CN,1728513893
197,barvinkove,48.9097,37.0205,12.43,52,64,2.68,UA,1728513831
198,szczytno,53.5626,20.9875,13.96,100,100,2.06,PL,1728513895
199,georgetown,5.4112,100.3354,25.96,87,20,1.54,MY,1728513896
200,othello,46.826,-119.1753,21.27,35,100,4.25,US,1728513897
201,klyuchi,52.2667,79.1667,8.14,54,99,4.46,RU,1728513898
202,oxapampa,-10.5775,-75.4017,16.21,98,82,0.77,PE,1728513899
203,stanley,54.868,-1.6985,6.82,89,40,6.69,GB,1728513900
204,flin flon,54.7682,-101.865,16.91,55,40,3.6,CA,1728513902
205,bayramaly,37.6185,62.1671,18.86,33,4,2.43,TM,1728513903
206,fort bragg,35.139,-79.006,21.01,63,0,1.54,US,1728513904
207,saint-philippe,-21.3585,55.7679,21.21,72,80,5.31,RE,1728513905
208,nouadhibou,20.931,-17.0347,23.99,69,3,8.23,MR,1728513906
209,hilo,19.7297,-155.09,28.95,71,0,5.14,US,1728513686
210,coquimbo,-29.9533,-71.3436,14.85,78,20,6.17,CL,1728513620
211,lamesa,32.7376,-101.951,30.81,15,0,5.31,US,1728513909
212,kushiro,42.975,144.3747,10.53,81,0,3.6,JP,1728513910
213,laguna,38.421,-121.4238,31.14,33,0,3.6,US,1728513795
214,phan rang-thap cham,11.5667,108.9833,24.06,84,19,1.78,VN,1728513913
215,vila velha,-20.3297,-40.2925,25.97,92,75,4.12,BR,1728513655
216,port alfred,-33.5906,26.891,19.93,88,59,4.7,ZA,1728513915
217,galle,6.0367,80.217,25.54,87,100,3.42,LK,1728513833
218,iskateley,67.6803,53.1512,-2.1,73,8,0.72,RU,1728513917
219,belyy yar,53.6039,91.3903,-0.06,69,20,0.0,RU,1728513918
220,pochinok,54.4068,32.4407,7.5,93,36,4.54,RU,1728513919
221,gaigeturi,33.4644,126.3183,19.03,82,100,4.12,KR,1728513920
222,charters towers,-20.1,146.2667,25.4,69,61,4.46,AU,1728513921
223,zhob,31.3411,69.4481,19.58,36,0,1.52,PK,1728513923
224,guayaramerin,-10.8368,-65.3614,27.11,71,94,1.91,BO,1728513924
225,east london,-33.0153,27.9116,20.64,73,19,4.01,ZA,1728513904
226,morrope,-6.5417,-80.0111,18.8,76,43,7.5,PE,1728513927
227,sfizef,35.2346,-0.2444,19.53,64,66,1.49,DZ,1728513928
228,ust-nera,64.5667,143.2,-8.62,87,25,1.66,RU,1728513929
229,maragogi,-9.0122,-35.2225,24.25,82,46,4.91,BR,1728513930
230,kunming,25.0389,102.7183,12.96,100,100,2.0,CN,1728513931
231,hanceville,34.0607,-86.7675,24.95,47,0,2.11,US,1728513932
232,weno,7.4515,151.8468,29.97,79,40,0.0,FM,1728513934
233,sao vicente,-23.9631,-46.3919,19.97,26,100,3.58,BR,1728513935
234,port elizabeth,-33.918,25.5701,17.4,97,100,3.09,ZA,1728513936
235,lodja,-3.4833,23.4333,19.72,95,69,0.6,CD,1728513937
236,chernolesskoye,44.7156,43.7133,14.56,52,0,2.31,RU,1728513938
237,queenstown,-31.8976,26.8753,17.31,41,64,1.32,ZA,1728513939
238,sena madureira,-9.0656,-68.6569,23.29,100,95,1.93,BR,1728513940
239,lerwick,60.1545,-1.1494,6.86,60,76,10.61,GB,1728513941
240,afif,23.9065,42.9172,23.92,14,2,4.75,SA,1728513942
241,as sulayyil,20.4607,45.5779,24.91,19,2,1.56,SA,1728513943
242,sept-iles,50.2001,-66.3821,8.29,95,75,2.57,CA,1728513945
243,sao lourenco do sul,-31.3653,-51.9783,17.27,74,100,7.53,BR,1728513946
244,happy valley-goose bay,53.3168,-60.3315,8.17,81,100,3.6,CA,1728513833
245,troy,42.6056,-83.1499,16.49,51,0,2.57,US,1728513703
246,sinabang,2.4803,96.3801,25.71,85,100,2.55,ID,1728513950
247,nadym,65.5333,72.5167,-2.56,84,80,7.91,RU,1728513951
248,fisterra,42.9049,-9.2629,16.46,81,2,4.99,ES,1728513952
249,hillsborough,37.5741,-122.3794,21.89,74,75,7.2,US,1728513953
250,akrehamn,59.2667,5.1833,9.46,85,100,16.81,NO,1728513954
251,mezhdurechenskiy,59.6,65.9333,-1.77,65,100,2.8,RU,1728513955
252,uravakonda,14.95,77.2667,22.39,95,100,3.98,IN,1728513957
253,eraan,9.0629,117.7016,26.58,86,1,1.3,PH,1728513958
254,lethbridge,49.7,-112.8186,23.27,37,75,2.06,CA,1728513959
255,ammon,43.4696,-111.9666,27.21,22,0,7.2,US,1728513960
256,paulden,34.8856,-112.4682,32.03,14,65,4.92,US,1728513961
257,regina,50.4501,-104.6178,22.99,30,75,5.66,CA,1728513962
258,la passe,45.5549,-0.8967,15.47,83,55,7.11,FR,1728513963
259,penzance,50.1186,-5.5371,12.38,80,38,9.02,GB,1728513964
260,kavaratti,10.5669,72.642,26.3,88,100,9.14,IN,1728513965
261,channahon,41.4295,-88.2287,21.09,55,0,4.63,US,1728513968
262,constantia,44.1833,28.65,16.5,60,100,4.26,RO,1728513802
263,kupang,-10.1667,123.5833,29.32,70,20,2.06,ID,1728513964
264,ko pha ngan,9.7578,100.0291,24.38,73,99,1.28,TH,1728513971
265,san ignacio de velasco,-16.3667,-60.95,30.74,38,81,0.88,BO,1728513972
266,alice springs,-23.7,133.8833,23.75,23,0,2.06,AU,1728513973
267,nemuro,43.3236,145.575,13.1,66,19,7.92,JP,1728513974
268,hasaki,35.7333,140.8333,20.46,70,97,12.48,JP,1728513975
269,shahrud,36.4182,54.9763,15.01,51,0,1.09,IR,1728513976
270,rabo de peixe,37.8,-25.5833,21.73,88,20,2.57,PT,1728513977
271,arvika,59.6553,12.5852,10.91,97,100,1.72,SE,1728513979
272,tolanaro,-25.0319,46.9987,22.04,83,40,8.23,MG,1728513980
273,santana,-0.0583,-51.1817,30.1,70,20,5.66,BR,1728513981
274,nova sintra,14.8667,-24.7167,26.74,80,7,8.05,CV,1728513982
275,qoryooley,1.7878,44.53,23.9,82,100,5.68,SO,1728513983
276,ibiruba,-28.6275,-53.0897,16.17,95,100,7.46,BR,1728513984
277,nantucket,41.2835,-70.0995,14.06,67,40,6.17,US,1728513985
278,suoyarvi,62.0833,32.35,1.51,84,100,6.85,RU,1728513986
279,pimentel,-6.8367,-79.9342,20.16,73,0,10.8,PE,1728513989
280,bhamo,24.2667,97.2333,21.33,99,53,0.42,MM,1728513990
281,haiku-pauwela,20.9219,-156.3051,28.47,69,40,9.83,US,1728513991
282,hirara,24.8,125.2833,25.15,88,40,4.63,JP,1728513992
283,bugene,-1.5911,31.1403,15.35,86,14,0.98,TZ,1728513993
284,mamou,10.5,-12.0,19.99,96,100,0.42,GN,1728513994
285,jinghong,21.991,100.7341,20.21,95,93,0.35,CN,1728513995
286,motueka,-41.1333,173.0167,12.83,77,60,1.72,NZ,1728513996
287,centar zupa,41.4681,20.5589,14.19,89,100,0.95,MK,1728513997
288,la ronge,55.1001,-105.2842,15.12,41,75,5.66,CA,1728513998
289,prado,-17.3411,-39.2208,25.12,82,52,6.99,BR,1728513999
290,markaz-e hukumat-e darweshan,31.1323,64.1934,18.64,26,0,0.73,AF,1728514001
291,neftekamsk,56.092,54.2703,3.91,76,100,6.9,RU,1728514002
292,gebeit,21.0667,36.3167,26.37,37,4,1.34,SD,1728514004
293,tyuratam,45.6507,63.3156,17.69,23,99,3.17,KZ,1728514005
294,tegina,10.0706,6.1906,23.71,91,92,1.82,NG,1728514006
295,dumka,24.2667,87.25,25.89,74,91,1.22,IN,1728514007
296,tazovsky,67.4667,78.7,-4.31,91,100,11.05,RU,1728513795
297,chibougamau,49.9168,-74.3659,4.79,93,100,2.57,CA,1728514009
298,ciudad lazaro cardenas,17.9583,-102.2,27.93,78,87,1.68,MX,1728513716
299,brisas de zicatela,15.8369,-97.0419,30.29,74,75,3.09,MX,1728514012
300,lodwar,3.1191,35.5973,30.97,33,59,5.3,KE,1728514013
301,rimouski,48.4488,-68.524,10.1,73,25,3.34,CA,1728514007
302,bandarbeyla,9.4942,50.8122,25.28,89,37,6.8,SO,1728514015
303,mossel bay,-34.1831,22.146,16.96,94,71,3.29,ZA,1728514016
304,palikir - national government center,6.9248,158.1611,31.41,66,75,1.54,FM,1728514017
305,sur,22.5667,59.5289,27.27,66,0,4.91,OM,1728514018
306,angaur state,6.906,134.13,28.61,73,61,1.35,PW,1728514019
307,nuriootpa,-34.4833,139.0,14.88,52,0,6.35,AU,1728514020
308,westport,41.1415,-73.3579,17.12,50,70,0.45,US,1728514021
309,keren,15.7778,38.4581,22.1,57,31,2.05,ER,1728514022
310,juquia,-24.3208,-47.6347,19.48,94,100,1.22,BR,1728514024
311,dapa,9.7594,126.0531,27.59,80,37,1.84,PH,1728514025
312,nar'yan-mar,67.6713,53.087,-2.14,73,8,0.83,RU,1728514026
313,murbad,19.25,73.4,24.7,90,100,0.58,IN,1728514027
314,ola,59.5833,151.2833,-3.3,55,0,2.46,RU,1728514029
315,hailun,47.45,126.9333,11.33,55,100,8.35,CN,1728514030
316,fort-shevchenko,44.5086,50.263,18.0,68,31,7.42,KZ,1728514033
317,cacapava,-23.1008,-45.7069,20.49,82,83,1.71,BR,1728514034
318,broome,42.2506,-75.833,12.04,63,100,3.13,US,1728514035
319,tamalpais valley,37.8796,-122.5458,21.73,79,100,4.02,US,1728514036
320,bantay,17.5847,120.3892,26.11,83,99,1.61,PH,1728514037
321,banes,20.9625,-75.7186,28.9,72,95,2.68,CU,1728514038
322,sabang,5.8933,95.3214,27.76,76,100,3.9,ID,1728514039
323,hermanus,-34.4187,19.2345,14.33,93,100,1.35,ZA,1728514040
324,kapuskasing,49.4169,-82.4331,7.05,87,75,4.12,CA,1728514041
325,kyaikkami,16.08,97.5675,26.33,84,84,3.12,MM,1728514042
326,mount darwin,-16.7725,31.5838,14.43,56,0,1.46,ZW,1728514043
327,ostersund,63.1792,14.6357,7.56,95,100,1.54,SE,1728514045
328,acapulco de juarez,16.8634,-99.8901,29.9,74,75,3.09,MX,1728513792
329,saguenay,48.4168,-71.0657,10.46,56,75,2.57,CA,1728513932
330,savanna-la-mar,18.219,-78.1332,28.85,86,69,3.02,JM,1728514048
331,coalinga,36.1397,-120.3602,33.36,17,4,2.03,US,1728514049
332,alofi,-19.0595,-169.9187,27.94,65,75,6.17,NU,1728514050
333,kauhajoki,62.4333,22.1833,6.73,93,100,4.47,FI,1728514051
334,mahina,-17.5065,-149.489,26.87,74,0,4.12,PF,1728514052
335,jackson,42.4165,-122.8345,24.84,45,0,5.66,US,1728514053
336,vadso,70.0744,29.7487,5.09,65,20,8.75,NO,1728514054
337,monrovia,6.3005,-10.7969,25.8,87,14,3.62,LR,1728514057
338,gobabis,-22.45,18.9667,21.91,18,97,4.83,NA,1728514058
339,niamey,13.5137,2.1098,32.16,58,0,2.57,NE,1728514059
340,margate,51.3813,1.3862,13.26,85,100,0.89,GB,1728513817
341,ponta delgada,37.7333,-25.6667,22.4,88,20,2.57,PT,1728514061
342,rio gallegos,-51.6226,-69.2181,18.03,29,20,15.43,AR,1728514059
343,tres arroyos,-38.3739,-60.2798,14.57,48,100,3.99,AR,1728513804
344,yeppoon,-23.1333,150.7333,21.92,80,5,4.29,AU,1728514064
345,alice town,25.7167,-79.3,29.3,80,100,11.81,BS,1728514066
346,oudtshoorn,-33.5907,22.2014,18.87,80,44,1.44,ZA,1728513954
347,nuuk,64.1835,-51.7216,0.34,93,75,5.14,GL,1728514069
348,bela,25.9333,81.9833,25.4,59,6,1.79,IN,1728514070
349,bamnet narong,15.4992,101.6897,22.67,88,100,4.0,TH,1728514071
350,kunyang,27.6658,120.5658,16.24,84,1,1.63,CN,1728514072
351,usinsk,65.9939,57.5281,-7.05,92,13,2.61,RU,1728514074
352,dryden,49.7833,-92.7503,15.16,31,0,5.14,CA,1728514076
353,el granada,37.5027,-122.4694,22.23,81,100,7.2,US,1728514077
354,ambovombe,-25.1667,46.0833,19.77,88,13,6.25,MG,1728514078
355,revda,56.801,59.9303,-0.33,74,100,6.01,RU,1728514079
356,jaicos,-7.3592,-41.1378,31.77,25,82,2.35,BR,1728514080
357,nyurba,63.2842,118.3319,-6.49,97,100,1.15,RU,1728514081
358,san antonio de pale,-1.4014,5.6325,24.76,83,85,3.41,GQ,1728514082
359,alotau,-10.3069,150.4462,27.79,82,88,1.58,PG,1728514083
360,zaozersk,69.4005,32.4476,1.86,68,100,8.48,RU,1728514084
361,mogocha,53.7333,119.7667,1.36,99,100,0.91,RU,1728514085
362,shchigry,51.8755,36.9043,7.46,90,2,2.05,RU,1728514086
363,new norfolk,-42.7826,147.0587,16.62,71,22,6.54,AU,1728514088
364,santiago de cao,-7.9589,-79.2392,18.07,82,75,5.14,PE,1728514090
365,huilong,31.8111,121.655,16.0,71,76,2.2,CN,1728514091
366,fort mcmurray,56.7268,-111.381,13.73,44,100,5.66,CA,1728514092
367,astrakhan,46.3497,48.0408,11.93,76,0,5.0,RU,1728514093
368,prineville,44.2999,-120.8345,21.39,46,0,5.14,US,1728514094
369,pangoa,-12.1167,-73.0,21.6,98,100,0.88,PE,1728514095
370,preobrazheniye,42.9019,133.9064,12.35,66,99,5.47,RU,1728514096
371,san jose de jachal,-30.2406,-68.7469,9.92,82,100,1.34,AR,1728514099
372,bcharre,34.2508,36.0106,18.82,26,0,2.38,LB,1728514100
373,mirnyy,62.5353,113.9611,-2.68,89,100,1.88,RU,1728514101
374,yuzhnoural'sk,54.4418,61.2536,5.49,51,100,6.5,RU,1728514102
375,tughyl,47.7252,84.2063,11.54,50,5,0.69,KZ,1728514103
376,rio preto da eva,-2.6994,-59.6997,32.09,35,94,0.95,BR,1728514104
377,tynda,55.1667,124.7167,0.88,97,100,3.71,RU,1728514105
378,filiatra,37.15,21.5833,20.95,80,58,1.18,GR,1728514106
379,rayevskaya,44.8319,37.5556,12.51,72,100,1.72,RU,1728514107
380,rabak,13.1809,32.74,26.39,66,100,2.52,SD,1728514109
381,callao,-12.0667,-77.15,19.16,77,40,7.72,PE,1728513940
382,arteche,12.2645,125.4048,26.42,90,99,1.41,PH,1728514111
383,saudarkrokur,65.7461,-19.6394,-1.35,79,55,2.77,IS,1728514112
384,nampa,43.5407,-116.5635,28.22,24,0,1.54,US,1728514113
385,sihanoukville,10.6093,103.5296,24.97,100,40,0.51,KH,1728514114
386,mount pleasant,32.7941,-79.8626,21.08,75,0,3.6,US,1728514107
387,olinda,-8.0089,-34.8553,26.85,78,40,3.6,BR,1728514116
388,priob'ye,62.5206,65.5964,-3.51,84,9,2.88,RU,1728514117
389,ta`u,-14.2336,-169.5144,26.62,77,80,5.8,AS,1728514118
390,copala,16.65,-98.9833,26.97,82,100,2.21,MX,1728514119
391,deogarh,21.5333,84.7333,23.08,93,49,0.47,IN,1728514121
392,terme,41.2092,36.9739,18.7,71,59,1.08,TR,1728514122
393,kapiri mposhi,-13.9652,28.6809,16.83,36,2,3.32,ZM,1728514123
394,plastun,44.7561,136.2939,9.06,78,49,2.91,RU,1728514124
395,puerto aysen,-45.4,-72.7,11.01,91,69,2.4,CL,1728514125
396,fale old settlement,-9.3852,-171.2468,28.32,71,60,5.3,TK,1728514126
397,hammerfest,70.6634,23.6821,3.25,75,75,7.2,NO,1728514127
398,caleta de carquin,-11.0925,-77.6267,18.11,86,30,4.18,PE,1728514128
399,agat village,13.3886,144.6585,27.98,89,20,2.06,GU,1728514129
400,tazacorte,28.629,-17.9293,22.54,81,0,3.13,ES,1728514130
401,kiama,-34.6833,150.8667,20.7,61,47,1.34,AU,1728514131
402,kidatu,-7.6992,36.9572,23.52,72,42,1.42,TZ,1728514133
403,luocheng,29.3848,104.0286,17.67,87,100,1.13,CN,1728514134
404,island harbour,50.724,-1.2758,13.33,67,99,2.68,GB,1728514135
405,sandila,27.0833,80.5167,24.95,60,37,1.51,IN,1728514136
406,ghormach,35.7306,63.7826,17.56,32,27,1.34,AF,1728514137
407,senanga,-16.1167,23.2667,20.17,24,0,3.28,ZM,1728514138
408,belleville,44.1788,-77.3705,7.92,87,40,2.57,CA,1728514139
409,palangkaraya,-2.2,113.8333,25.45,87,47,0.79,ID,1728514140
410,sydney mines,46.2367,-60.2177,10.36,84,40,3.09,CA,1728514141
411,holualoa,19.6228,-155.9522,27.13,68,40,4.63,US,1728514142
412,salinopolis,-0.6136,-47.3561,26.79,80,96,5.42,BR,1728514144
413,tofol,5.3248,163.0078,24.88,94,100,1.03,FM,1728514145
414,mutuali,-14.8706,37.0044,19.33,59,54,1.61,MZ,1728514146
415,tromso,69.6496,18.957,7.01,61,0,9.77,NO,1728514147
416,saint-leu,-21.15,55.2833,21.48,93,24,4.93,RE,1728514148
417,porto novo,6.4965,2.6036,25.9,86,89,0.64,BJ,1728514149
418,alesund,62.4723,6.1549,6.53,82,75,6.69,NO,1728514048
419,mount vernon,40.9126,-73.8371,18.16,41,20,4.12,US,1728514151
420,bamboo flat,11.7,92.7167,26.05,94,20,1.03,IN,1728514153
421,avellaneda,-29.1176,-59.6583,17.83,82,100,5.14,AR,1728514155
422,ambatofinandrahana,-20.55,46.8,14.14,79,89,3.46,MG,1728514156
423,coahuayana de hidalgo,18.7,-103.6583,28.06,80,90,1.73,MX,1728514157
424,forio,40.7342,13.8646,20.79,86,98,0.89,IT,1728514158
425,port hedland,-20.3167,118.5667,28.03,32,63,8.75,AU,1728514159
426,fort saskatchewan,53.7168,-113.2187,11.54,58,95,2.06,CA,1728514160
427,villa ocampo,-28.4875,-59.3551,18.12,80,100,5.28,AR,1728514161
428,firmat,-33.4594,-61.4832,19.39,41,100,3.39,AR,1728514162
429,zouerate,22.7187,-12.4521,31.82,29,23,4.09,MR,1728514163
430,vrutok,41.7686,20.8392,12.91,90,100,3.02,MK,1728514164
431,greymouth,-42.4667,171.2,12.62,61,43,2.52,NZ,1728514165
432,dharchula,29.85,80.5333,10.56,81,14,1.93,IN,1728514167
433,cristalina,-16.7686,-47.6136,26.36,43,77,1.54,BR,1728514168
434,bridgewater,44.3835,-64.5155,11.49,81,56,1.42,CA,1728514169
435,plast,54.3691,60.8136,4.95,52,100,6.52,RU,1728514170
436,igarka,67.4667,86.5833,-8.18,95,96,3.38,RU,1728514171
437,griffith,41.5284,-87.4237,17.97,63,0,3.6,US,1728514172
438,lata,40.1629,-8.3327,12.05,97,28,1.37,PT,1728514173
439,keflavik,64.0049,-22.5624,2.24,87,75,1.54,IS,1728514174
440,achinsk,56.2694,90.4993,-1.41,93,69,3.87,RU,1728514175
441,aldinga beach,-35.2793,138.4604,15.37,57,2,7.54,AU,1728514176
442,amos,48.5669,-78.1162,2.87,94,100,3.33,CA,1728514178
443,tarawa,1.419,172.984,31.05,66,20,4.63,KI,1728514179
444,anar darah,32.7587,61.654,20.13,22,0,2.21,AF,1728514180
445,fort st. john,56.2499,-120.8529,11.94,40,75,4.63,CA,1728514181
446,suleja,9.1758,7.1808,24.55,93,64,0.7,NG,1728514182
447,gadzhiyevo,69.2551,33.3362,3.02,67,100,11.89,RU,1728514183
448,sombrerete,23.6333,-103.65,20.43,36,82,4.13,MX,1728514184
449,vallenar,-28.5708,-70.7581,16.37,52,0,2.41,CL,1728514185
450,pratt,37.6439,-98.7376,30.12,28,0,4.63,US,1728514186
451,labytnangi,66.6572,66.4183,-6.25,86,69,2.59,RU,1728514133
452,las lomitas,-24.7096,-60.593,21.32,84,96,2.92,AR,1728514154
453,bereznik,62.8551,42.7072,-1.55,73,8,3.49,RU,1728514190
454,muynoq,43.7683,59.0214,15.99,60,4,4.33,UZ,1728514191
455,akjoujt,19.6969,-14.4164,35.28,28,21,2.9,MR,1728514192
456,jean-rabel,19.8533,-73.1917,28.7,74,18,1.88,HT,1728514193
457,skuodas,56.2667,21.5333,11.16,97,79,2.97,LT,1728514194
458,tan-tan,28.438,-11.1032,18.99,91,17,2.91,MA,1728514195
459,tsetserleg,47.475,101.4542,1.11,47,27,3.01,MN,1728514196
460,swan hill,-35.3378,143.5544,21.27,30,57,4.37,AU,1728514197
461,mariehamn,60.0973,19.9348,12.92,88,100,4.63,AX,1728514198
462,maintirano,-18.0667,44.0167,24.41,80,28,1.57,MG,1728514199
463,rio grande,-32.035,-52.0986,16.92,74,100,8.36,BR,1728513955
464,tionk essil,12.7856,-16.5217,25.68,91,95,2.86,SN,1728514202
465,allapalli,19.4167,80.0667,22.76,98,71,0.56,IN,1728514203
466,kapa'a,22.0752,-159.319,30.18,72,20,8.75,US,1728514204
467,le vauclin,14.5452,-60.8388,29.03,74,20,3.6,MQ,1728514205
468,willowmore,-33.2926,23.4895,20.48,43,64,3.94,ZA,1728514206
469,taltal,-25.4,-70.4833,15.06,72,5,2.43,CL,1728514207
470,tsiombe,-25.3,45.4833,20.37,86,33,6.34,MG,1728514208
471,sinop,41.7711,34.8709,17.25,49,59,1.23,TR,1728514209
472,malango,-2.9627,119.9001,21.03,95,73,0.4,ID,1728514210
473,sebastopol,44.6,33.5333,17.78,55,94,5.44,UA,1728514212
474,konarka,19.9,86.1167,26.28,81,13,1.93,IN,1728514213
475,utrik,11.2278,169.8474,27.33,82,100,9.36,MH,1728514215
476,tarasovskiy,48.7292,40.3636,10.21,79,0,0.52,RU,1728514216
477,zhezqazghan,47.7833,67.7667,12.47,40,85,4.08,KZ,1728514217
478,murudeshwara,14.0943,74.4845,25.27,88,100,4.34,IN,1728514218
479,wau,7.7029,27.9953,21.53,93,27,2.2,SS,1728514219
480,miquelon,47.0975,-56.3814,14.42,96,100,6.54,PM,1728514220
481,phimai,15.2232,102.4947,22.96,85,100,2.85,TH,1728514221
482,sayan,-11.1361,-77.1933,21.09,68,20,1.64,PE,1728514223
483,pedernales,18.0384,-71.744,28.65,76,81,0.55,DO,1728514224
484,mwandiga,-4.83,29.6581,22.43,75,51,2.62,TZ,1728514225
485,natal,-5.795,-35.2094,25.36,78,40,3.6,BR,1728514143
486,artondale,47.2995,-122.6207,18.15,67,0,1.34,US,1728514227
487,newman,37.3138,-121.0208,35.6,13,21,2.31,US,1728514228
488,kristiansund,63.1115,7.732,5.63,81,75,4.63,NO,1728514229
489,palmer,42.1584,-72.3287,11.97,58,54,1.55,US,1728514230
490,pasaia,43.3403,-1.898,15.82,80,40,3.6,ES,1728514232
491,beboto,8.2668,16.939,20.47,96,66,0.92,TD,1728514234
492,pul-e khumri,35.9446,68.7151,18.82,56,0,0.57,AF,1728514235
493,tocopilla,-22.092,-70.1979,16.24,79,21,2.37,CL,1728514236
494,jiuquan,39.7432,98.5174,10.03,45,0,1.34,CN,1728514237
495,sittwe,20.15,92.9,25.6,88,21,3.33,MM,1728514238
496,hoa binh,20.8133,105.3383,20.96,91,16,0.75,VN,1728514239
497,mili,6.0815,171.735,28.48,73,90,3.1,MH,1728514240
498,taoudenni,22.6783,-3.9836,32.35,34,28,7.96,ML,1728514241
499,mamuju,-2.6748,118.8885,26.68,85,98,1.08,ID,1728514242
500,port augusta,-32.5,137.7667,17.51,67,41,10.53,AU,1728514244
501,osterburg,52.7833,11.7667,15.05,97,100,3.89,DE,1728514245
502,nishinoomote,30.7333,131.0,23.9,65,13,4.12,JP,1728514246
503,geraldton,-28.7667,114.6,18.23,59,1,5.66,AU,1728514247
504,jenzan,36.2408,128.2975,11.81,93,75,0.51,KR,1728514248
505,puerto quijarro,-17.7833,-57.7667,30.41,42,69,1.01,BO,1728514249
506,road town,18.4167,-64.6167,30.02,79,40,3.09,VG,1728514250
507,manokwari,-0.8667,134.0833,27.85,71,88,0.74,ID,1728514251
508,puerto santa,-8.9906,-78.6456,17.69,85,61,5.19,PE,1728514252
509,tobati,-25.25,-57.0667,22.04,84,81,3.38,PY,1728514058
510,carbonear,47.7332,-53.2148,12.3,86,99,7.37,CA,1728514254
511,hobyo,5.3505,48.5268,25.05,82,86,9.76,SO,1728514256
512,prince albert,53.2001,-105.7677,18.97,37,75,4.63,CA,1728514257
513,acarau,-2.8856,-40.12,25.63,80,7,6.77,BR,1728514258
514,pointe-noire,-4.7761,11.8635,24.35,85,30,1.92,CG,1728514259
515,nikolayevsk-on-amure,53.1406,140.73,4.74,73,21,1.63,RU,1728514260
516,sarkisla,39.3519,36.4098,16.92,32,77,1.75,TR,1728514261
517,pontianak,-0.0333,109.3333,24.99,100,40,1.54,ID,1728514262
518,helena,46.5927,-112.0361,27.01,28,0,1.54,US,1728514123
519,siwa oasis,29.2041,25.5195,25.02,37,0,3.28,EG,1728514264
520,luau,-10.7073,22.2247,20.71,66,67,1.92,AO,1728514265
521,zabol,32.25,67.25,13.01,35,0,3.38,AF,1728514267
522,trabzon,40.9167,39.8333,15.05,77,0,2.06,TR,1728514268
523,port saint john's,-31.6229,29.5448,21.85,70,48,1.88,ZA,1728514269
524,santa terezinha,-29.9002,-50.0904,18.13,80,100,10.47,BR,1728514270
525,lyantor,61.6195,72.1555,-2.95,76,15,5.55,RU,1728514271
526,choyr,46.3611,108.3611,1.88,51,18,1.94,MN,1728514272
527,jaunpiebalga,57.1833,26.05,11.2,96,100,3.65,LV,1728514273
528,tamanrasset,22.785,5.5228,25.95,21,40,0.0,DZ,1728514274
529,hotan,37.0997,79.9269,14.46,44,47,2.99,CN,1728514275
530,mo i rana,66.3128,14.1428,7.26,70,75,4.12,NO,1728514276
531,port macquarie,-31.4333,152.9167,16.71,81,99,2.23,AU,1728514278
532,lepsy,46.235,78.9456,13.28,41,12,3.2,KZ,1728514279
533,osby,56.3816,13.9936,11.42,99,99,2.42,SE,1728514280
534,salinas,36.6777,-121.6555,22.1,75,0,7.2,US,1728514281
535,urangan,-25.3,152.9,21.52,72,45,6.9,AU,1728514282
536,zambezi,-13.5432,23.1047,18.33,26,2,2.7,ZM,1728514283
537,uzhur,55.3036,89.8339,-1.53,83,35,3.83,RU,1728514284
538,antsiranana,-12.2787,49.2917,23.88,66,97,7.36,MG,1728514285
539,gejiu,23.306,103.1635,13.17,96,98,1.47,CN,1728514286
540,maceio,-9.6658,-35.7353,24.69,88,0,5.14,BR,1728514228
541,villamontes,-21.25,-63.5,16.43,94,100,1.16,BO,1728514288
542,anjar,23.1333,70.0167,30.96,39,84,2.78,IN,1728514290
543,marat,25.0701,45.4615,25.14,19,0,4.01,SA,1728514291
544,fredericton,45.9454,-66.6656,8.34,95,100,1.03,CA,1728514292
545,laojunmiao,39.8333,97.7333,6.6,52,0,0.75,CN,1728514293
546,tabou,4.423,-7.3528,25.08,91,18,2.32,CI,1728514294
547,ratnagiri,16.9833,73.3,24.14,91,100,1.78,IN,1728514295
548,hassi messaoud,31.6804,6.0729,27.92,24,0,1.03,DZ,1728514296
549,altai,46.3722,96.2583,3.58,38,16,2.84,MN,1728514297
550,labrador city,52.9463,-66.9114,2.95,94,100,5.81,CA,1728514299
551,iquique,-20.2208,-70.1431,16.64,82,35,2.69,CL,1728514134
552,turuntayevo,52.2,107.6167,0.96,59,100,1.13,RU,1728514302
553,aripuana,-9.1667,-60.6333,30.96,45,78,0.36,BR,1728514303
554,anna regina,7.2644,-58.5077,27.96,73,100,4.5,GY,1728514304
555,vilyuysk,63.7553,121.6247,-6.5,99,100,0.62,RU,1728514305
556,alo,6.5486,4.2686,25.04,90,99,1.06,NG,1728514306
557,indramayu,-6.3264,108.32,26.71,72,72,2.83,ID,1728514307
558,vorkuta,67.5,64.0,-7.44,96,25,2.54,RU,1728514308
559,ocean city,39.2776,-74.5746,18.33,54,2,2.68,US,1728514309
560,narimanov,46.6927,47.8498,11.3,73,1,4.6,RU,1728514310
561,olyokminsk,60.3736,120.4264,-2.62,97,96,1.18,RU,1728514311
562,valenca do piaui,-6.4075,-41.7456,29.8,30,20,2.93,BR,1728514313
563,cabedelo,-6.9811,-34.8339,26.37,77,46,4.75,BR,1728514314
564,yanykurgan,43.915,67.2481,16.93,31,52,4.92,KZ,1728514315
565,naze,28.3667,129.4833,20.51,67,1,3.0,JP,1728514316
566,geita,-2.8708,32.2341,19.53,76,74,1.83,TZ,1728514317
567,makar'yev,57.8797,43.8069,1.37,88,99,3.56,RU,1728514318
568,firuzabad,28.8438,52.5707,19.17,43,0,1.91,IR,1728514319
569,panguipulli,-39.6333,-72.3333,14.3,79,2,1.07,CL,1728514320
570,bereket,39.2446,55.5154,17.6,62,6,0.33,TM,1728514321
571,saipan,15.1355,145.701,29.39,84,40,3.6,MP,1728514322
